[
  {
    "ADDRESS": "1 STRAITS BOULEVARD SINGAPORE CHINESE CULTURAL CENTRE SINGAPORE 018906",
    "BLK_NO": "1",
    "BUILDING": "SINGAPORE CHINESE CULTURAL CENTRE",
    "LATITUDE": "1.27582919242101",
    "LONGITUDE": "103.849576388626",
    "LONGTITUDE": "103.849576388626",
    "POSTAL": "018906",
    "ROAD_NAME": "STRAITS BOULEVARD",
    "SEARCHVAL": "SINGAPORE CHINESE CULTURAL CENTRE",
    "X": "29809.3654073011",
    "Y": "28700.2361268327"
  },
  {
    "ADDRESS": "5A MARINA GARDENS DRIVE SINGAPORE 018910",
    "BLK_NO": "5A",
    "BUILDING": "NIL",
    "LATITUDE": "1.27958678750876",
    "LONGITUDE": "103.868955673647",
    "LONGTITUDE": "103.868955673647",
    "POSTAL": "018910",
    "ROAD_NAME": "MARINA GARDENS DRIVE",
    "SEARCHVAL": "5A MARINA GARDENS DRIVE SINGAPORE 018910",
    "X": "31966.1207873868",
    "Y": "29115.7533728331"
  },
  {
    "ADDRESS": "100A CENTRAL BOULEVARD TEMPORARY SITE OFFICE SINGAPORE 018915",
    "BLK_NO": "100A",
    "BUILDING": "TEMPORARY SITE OFFICE",
    "LATITUDE": "1.27368177267254",
    "LONGITUDE": "103.860075469301",
    "LONGTITUDE": "103.860075469301",
    "POSTAL": "018915",
    "ROAD_NAME": "CENTRAL BOULEVARD",
    "SEARCHVAL": "TEMPORARY SITE OFFICE",
    "X": "30977.8324668026",
    "Y": "28462.7952964045"
  },
  {
    "ADDRESS": "21 PARK STREET DBS Marina Bay MRT Station SINGAPORE 018925",
    "BLK_NO": "21",
    "BUILDING": "DBS Marina Bay MRT Station",
    "LATITUDE": "1.27642735476718",
    "LONGITUDE": "103.854597776754",
    "LONGTITUDE": "103.854597776754",
    "POSTAL": "018925",
    "ROAD_NAME": "PARK STREET",
    "SEARCHVAL": "DBS Marina Bay MRT Station",
    "X": "30368.2056121128",
    "Y": "28766.3819018323"
  },
  {
    "ADDRESS": "21 PARK STREET MARINA BAY MRT STATION SINGAPORE 018925",
    "BLK_NO": "21",
    "BUILDING": "MARINA BAY MRT STATION",
    "LATITUDE": "1.27642735449345",
    "LONGITUDE": "103.854597777026",
    "LONGTITUDE": "103.854597777026",
    "POSTAL": "018925",
    "ROAD_NAME": "PARK STREET",
    "SEARCHVAL": "MARINA BAY MRT STATION",
    "X": "30368.2056423808",
    "Y": "28766.3818715643"
  },
  {
    "ADDRESS": "21 PARK STREET MARINA BAY MRT STATION SINGAPORE 018925",
    "BLK_NO": "21",
    "BUILDING": "MARINA BAY MRT STATION",
    "LATITUDE": "1.27631114381586",
    "LONGITUDE": "103.854604975361",
    "LONGTITUDE": "103.854604975361",
    "POSTAL": "018925",
    "ROAD_NAME": "PARK STREET",
    "SEARCHVAL": "MARINA BAY MRT STATION",
    "X": "30369.0068661775",
    "Y": "28753.5319017582"
  },
  {
    "ADDRESS": "21 PARK STREET OCBC Marina Bay MRT SINGAPORE 018925",
    "BLK_NO": "21",
    "BUILDING": "OCBC Marina Bay MRT",
    "LATITUDE": "1.27642735476718",
    "LONGITUDE": "103.854597776754",
    "LONGTITUDE": "103.854597776754",
    "POSTAL": "018925",
    "ROAD_NAME": "PARK STREET",
    "SEARCHVAL": "OCBC Marina Bay MRT",
    "X": "30368.2056121128",
    "Y": "28766.3819018323"
  },
  {
    "ADDRESS": "21 PARK STREET UOB Marina Bay MRT Station SINGAPORE 018925",
    "BLK_NO": "21",
    "BUILDING": "UOB Marina Bay MRT Station",
    "LATITUDE": "1.27642735476718",
    "LONGITUDE": "103.854597776754",
    "LONGTITUDE": "103.854597776754",
    "POSTAL": "018925",
    "ROAD_NAME": "PARK STREET",
    "SEARCHVAL": "UOB Marina Bay MRT Station",
    "X": "30368.2056121128",
    "Y": "28766.3819018323"
  },
  {
    "ADDRESS": "23 PARK STREET MARINA BAY MRT STATION SINGAPORE 018926",
    "BLK_NO": "23",
    "BUILDING": "MARINA BAY MRT STATION",
    "LATITUDE": "1.27625146423745",
    "LONGITUDE": "103.855447156279",
    "LONGTITUDE": "103.855447156279",
    "POSTAL": "018926",
    "ROAD_NAME": "PARK STREET",
    "SEARCHVAL": "MARINA BAY MRT STATION",
    "X": "30462.7349769678",
    "Y": "28746.9336326476"
  },
  {
    "ADDRESS": "20A PARK STREET TEMPORARY SITE OFFICE SINGAPORE 018927",
    "BLK_NO": "20A",
    "BUILDING": "TEMPORARY SITE OFFICE",
    "LATITUDE": "1.27524127939474",
    "LONGITUDE": "103.853658960578",
    "LONGTITUDE": "103.853658960578",
    "POSTAL": "018927",
    "ROAD_NAME": "PARK STREET",
    "SEARCHVAL": "TEMPORARY SITE OFFICE",
    "X": "30263.7238617986",
    "Y": "28635.2309705298"
  },
  {
    "ADDRESS": "2 PARK STREET SHENTON WAY MRT STATION SINGAPORE 018928",
    "BLK_NO": "2",
    "BUILDING": "SHENTON WAY MRT STATION",
    "LATITUDE": "1.27773021965509",
    "LONGITUDE": "103.850405709087",
    "LONGTITUDE": "103.850405709087",
    "POSTAL": "018928",
    "ROAD_NAME": "PARK STREET",
    "SEARCHVAL": "SHENTON WAY MRT STATION",
    "X": "29901.6608133512",
    "Y": "28910.4424914084"
  },
  {
    "ADDRESS": "25 PARK STREET MARINA BAY MRT STATION SINGAPORE 018929",
    "BLK_NO": "25",
    "BUILDING": "MARINA BAY MRT STATION",
    "LATITUDE": "1.27493906950917",
    "LONGITUDE": "103.855330338563",
    "LONGTITUDE": "103.855330338563",
    "POSTAL": "018929",
    "ROAD_NAME": "PARK STREET",
    "SEARCHVAL": "MARINA BAY MRT STATION",
    "X": "30449.7353319814",
    "Y": "28601.8156915978"
  },
  {
    "ADDRESS": "51 MARINA SOUTH DRIVE SINGAPORE 018930",
    "BLK_NO": "51",
    "BUILDING": "NIL",
    "LATITUDE": "1.2753583315339",
    "LONGITUDE": "103.867027808386",
    "LONGTITUDE": "103.867027808386",
    "POSTAL": "018930",
    "ROAD_NAME": "MARINA SOUTH DRIVE",
    "SEARCHVAL": "51 MARINA SOUTH DRIVE SINGAPORE 018930",
    "X": "31751.5710579529",
    "Y": "28648.1896023992"
  },
  {
    "ADDRESS": "5 STRAITS VIEW THE HEART SINGAPORE 018935",
    "BLK_NO": "5",
    "BUILDING": "THE HEART",
    "LATITUDE": "1.277372350723",
    "LONGITUDE": "103.852844801266",
    "LONGTITUDE": "103.852844801266",
    "POSTAL": "018935",
    "ROAD_NAME": "STRAITS VIEW",
    "SEARCHVAL": "THE HEART",
    "X": "30173.1125663631",
    "Y": "28870.8731260262"
  },
  {
    "ADDRESS": "7 STRAITS VIEW MARINA ONE EAST TOWER SINGAPORE 018936",
    "BLK_NO": "7",
    "BUILDING": "MARINA ONE EAST TOWER",
    "LATITUDE": "1.27790633865108",
    "LONGITUDE": "103.852851650485",
    "LONGTITUDE": "103.852851650485",
    "POSTAL": "018936",
    "ROAD_NAME": "STRAITS VIEW",
    "SEARCHVAL": "MARINA ONE EAST TOWER",
    "X": "30173.8743812451",
    "Y": "28929.918758478"
  },
  {
    "ADDRESS": "9 STRAITS VIEW MARINA ONE WEST TOWER SINGAPORE 018937",
    "BLK_NO": "9",
    "BUILDING": "MARINA ONE WEST TOWER",
    "LATITUDE": "1.27709868232627",
    "LONGITUDE": "103.852332929856",
    "LONGTITUDE": "103.852332929856",
    "POSTAL": "018937",
    "ROAD_NAME": "STRAITS VIEW",
    "SEARCHVAL": "MARINA ONE WEST TOWER",
    "X": "30116.145587692",
    "Y": "28840.6118618008"
  },
  {
    "ADDRESS": "11 MARINA BOULEVARD SINGAPORE 018940",
    "BLK_NO": "11",
    "BUILDING": "NIL",
    "LATITUDE": "1.28071923547797",
    "LONGITUDE": "103.85600467736",
    "LONGTITUDE": "103.85600467736",
    "POSTAL": "018940",
    "ROAD_NAME": "MARINA BOULEVARD",
    "SEARCHVAL": "11 MARINA BOULEVARD SINGAPORE 018940",
    "X": "30524.7782899914",
    "Y": "29240.9572506938"
  },
  {
    "ADDRESS": "11 MARINA BOULEVARD RED DOT DESIGN MUSEUM SINGAPORE 018940",
    "BLK_NO": "11",
    "BUILDING": "RED DOT DESIGN MUSEUM",
    "LATITUDE": "1.28013724100111",
    "LONGITUDE": "103.856254431744",
    "LONGTITUDE": "103.856254431744",
    "POSTAL": "018940",
    "ROAD_NAME": "MARINA BOULEVARD",
    "SEARCHVAL": "RED DOT DESIGN MUSEUM",
    "X": "30552.5744993547",
    "Y": "29176.6035522055"
  },
  {
    "ADDRESS": "71 MARINA COASTAL DRIVE MARINA SOUTH WHARVES SINGAPORE 018946",
    "BLK_NO": "71",
    "BUILDING": "MARINA SOUTH WHARVES",
    "LATITUDE": "1.27004058407893",
    "LONGITUDE": "103.857348026655",
    "LONGTITUDE": "103.857348026655",
    "POSTAL": "018946",
    "ROAD_NAME": "MARINA COASTAL DRIVE",
    "SEARCHVAL": "MARINA SOUTH WHARVES",
    "X": "30674.2931702323",
    "Y": "28060.1684885062"
  },
  {
    "ADDRESS": "61 MARINA COASTAL DRIVE DBS International Cruise Terminal SINGAPORE 018947",
    "BLK_NO": "61",
    "BUILDING": "DBS International Cruise Terminal",
    "LATITUDE": "1.26602231000447",
    "LONGITUDE": "103.860527876808",
    "LONGTITUDE": "103.860527876808",
    "POSTAL": "018947",
    "ROAD_NAME": "MARINA COASTAL DRIVE",
    "SEARCHVAL": "DBS International Cruise Terminal",
    "X": "31028.1907944446",
    "Y": "27615.8520126995"
  },
  {
    "ADDRESS": "61 MARINA COASTAL DRIVE MARINA BAY CRUISE CENTRE SINGAPORE SINGAPORE 018947",
    "BLK_NO": "61",
    "BUILDING": "MARINA BAY CRUISE CENTRE SINGAPORE",
    "LATITUDE": "1.26606178744338",
    "LONGITUDE": "103.860559986559",
    "LONGTITUDE": "103.860559986559",
    "POSTAL": "018947",
    "ROAD_NAME": "MARINA COASTAL DRIVE",
    "SEARCHVAL": "MARINA BAY CRUISE CENTRE SINGAPORE",
    "X": "31031.7643234059",
    "Y": "27620.2172613107"
  },
  {
    "ADDRESS": "33 MARINA COASTAL DRIVE MARINA SOUTH PIER MRT STATION SINGAPORE 018948",
    "BLK_NO": "33",
    "BUILDING": "MARINA SOUTH PIER MRT STATION",
    "LATITUDE": "1.2710270361201",
    "LONGITUDE": "103.862447515736",
    "LONGTITUDE": "103.862447515736",
    "POSTAL": "018948",
    "ROAD_NAME": "MARINA COASTAL DRIVE",
    "SEARCHVAL": "MARINA SOUTH PIER MRT STATION",
    "X": "31241.8260070188",
    "Y": "28169.2510934174"
  },
  {
    "ADDRESS": "8 MARINA GARDENS DRIVE MARINA BARRAGE SINGAPORE 018951",
    "BLK_NO": "8",
    "BUILDING": "MARINA BARRAGE",
    "LATITUDE": "1.27990588517692",
    "LONGITUDE": "103.870469615659",
    "LONGTITUDE": "103.870469615659",
    "POSTAL": "018951",
    "ROAD_NAME": "MARINA GARDENS DRIVE",
    "SEARCHVAL": "MARINA BARRAGE",
    "X": "32134.6098191161",
    "Y": "29151.0399395898"
  },
  {
    "ADDRESS": "18 MARINA GARDENS DRIVE SINGAPORE 018953",
    "BLK_NO": "18",
    "BUILDING": "NIL",
    "LATITUDE": "1.28172976577947",
    "LONGITUDE": "103.861684351841",
    "LONGTITUDE": "103.861684351841",
    "POSTAL": "018953",
    "ROAD_NAME": "MARINA GARDENS DRIVE",
    "SEARCHVAL": "18 MARINA GARDENS DRIVE SINGAPORE 018953",
    "X": "31156.8786988407",
    "Y": "29352.7027722765"
  },
  {
    "ADDRESS": "18 MARINA GARDENS DRIVE DBS Gardens BY THE BAY SINGAPORE 018953",
    "BLK_NO": "18",
    "BUILDING": "DBS Gardens BY THE BAY",
    "LATITUDE": "1.28402150049557",
    "LONGITUDE": "103.864915787491",
    "LONGTITUDE": "103.864915787491",
    "POSTAL": "018953",
    "ROAD_NAME": "MARINA GARDENS DRIVE",
    "SEARCHVAL": "DBS Gardens BY THE BAY",
    "X": "31516.5079895211",
    "Y": "29606.1152004767"
  },
  {
    "ADDRESS": "18 MARINA GARDENS DRIVE GARDENS BY THE BAY SINGAPORE 018953",
    "BLK_NO": "18",
    "BUILDING": "GARDENS BY THE BAY",
    "LATITUDE": "1.28458858838941",
    "LONGITUDE": "103.864656599639",
    "LONGTITUDE": "103.864656599639",
    "POSTAL": "018953",
    "ROAD_NAME": "MARINA GARDENS DRIVE",
    "SEARCHVAL": "GARDENS BY THE BAY",
    "X": "31487.6617535353",
    "Y": "29668.8205045722"
  },
  {
    "ADDRESS": "18 MARINA GARDENS DRIVE GARDENS BY THE BAY (CLOUD FOREST) SINGAPORE 018953",
    "BLK_NO": "18",
    "BUILDING": "GARDENS BY THE BAY (CLOUD FOREST)",
    "LATITUDE": "1.28387301464475",
    "LONGITUDE": "103.865993692974",
    "LONGTITUDE": "103.865993692974",
    "POSTAL": "018953",
    "ROAD_NAME": "MARINA GARDENS DRIVE",
    "SEARCHVAL": "GARDENS BY THE BAY (CLOUD FOREST)",
    "X": "31636.4701790353",
    "Y": "29589.697906645"
  },
  {
    "ADDRESS": "18 MARINA GARDENS DRIVE GARDENS BY THE BAY (FLOWER DOME) SINGAPORE 018953",
    "BLK_NO": "18",
    "BUILDING": "GARDENS BY THE BAY (FLOWER DOME)",
    "LATITUDE": "1.28462046280112",
    "LONGITUDE": "103.864735377434",
    "LONGTITUDE": "103.864735377434",
    "POSTAL": "018953",
    "ROAD_NAME": "MARINA GARDENS DRIVE",
    "SEARCHVAL": "GARDENS BY THE BAY (FLOWER DOME)",
    "X": "31496.4290263588",
    "Y": "29672.3451204728"
  },
  {
    "ADDRESS": "18 MARINA GARDENS DRIVE GARDENS BY THE BAY (GB HEADQUARTERS) SINGAPORE 018953",
    "BLK_NO": "18",
    "BUILDING": "GARDENS BY THE BAY (GB HEADQUARTERS)",
    "LATITUDE": "1.28053324159216",
    "LONGITUDE": "103.864832057323",
    "LONGTITUDE": "103.864832057323",
    "POSTAL": "018953",
    "ROAD_NAME": "MARINA GARDENS DRIVE",
    "SEARCHVAL": "GARDENS BY THE BAY (GB HEADQUARTERS)",
    "X": "31507.1942585194",
    "Y": "29220.4013851807"
  },
  {
    "ADDRESS": "18 MARINA GARDENS DRIVE GARDENS BY THE BAY (SUN PAVILION) SINGAPORE 018953",
    "BLK_NO": "18",
    "BUILDING": "GARDENS BY THE BAY (SUN PAVILION)",
    "LATITUDE": "1.28300901486793",
    "LONGITUDE": "103.866643180247",
    "LONGTITUDE": "103.866643180247",
    "POSTAL": "018953",
    "ROAD_NAME": "MARINA GARDENS DRIVE",
    "SEARCHVAL": "GARDENS BY THE BAY (SUN PAVILION)",
    "X": "31708.7539984537",
    "Y": "29494.162191866"
  },
  {
    "ADDRESS": "18 MARINA GARDENS DRIVE GARDENS BY THE BAY (VISITOR CENTRE) SINGAPORE 018953",
    "BLK_NO": "18",
    "BUILDING": "GARDENS BY THE BAY (VISITOR CENTRE)",
    "LATITUDE": "1.28203381265425",
    "LONGITUDE": "103.865623590955",
    "LONGTITUDE": "103.865623590955",
    "POSTAL": "018953",
    "ROAD_NAME": "MARINA GARDENS DRIVE",
    "SEARCHVAL": "GARDENS BY THE BAY (VISITOR CENTRE)",
    "X": "31595.2834439436",
    "Y": "29386.3278991394"
  },
  {
    "ADDRESS": "18 MARINA GARDENS DRIVE OCBC Gardens by the Bay - The Canopy SINGAPORE 018953",
    "BLK_NO": "18",
    "BUILDING": "OCBC Gardens by the Bay - The Canopy",
    "LATITUDE": "1.28402150049557",
    "LONGITUDE": "103.864915787491",
    "LONGTITUDE": "103.864915787491",
    "POSTAL": "018953",
    "ROAD_NAME": "MARINA GARDENS DRIVE",
    "SEARCHVAL": "OCBC Gardens by the Bay - The Canopy",
    "X": "31516.5079895211",
    "Y": "29606.1152004767"
  },
  {
    "ADDRESS": "18 MARINA GARDENS DRIVE SATAY BY THE BAY SINGAPORE 018953",
    "BLK_NO": "18",
    "BUILDING": "SATAY BY THE BAY",
    "LATITUDE": "1.28234302492403",
    "LONGITUDE": "103.868636814924",
    "LONGTITUDE": "103.868636814924",
    "POSTAL": "018953",
    "ROAD_NAME": "MARINA GARDENS DRIVE",
    "SEARCHVAL": "SATAY BY THE BAY",
    "X": "31930.6301841512",
    "Y": "29420.5234261565"
  },
  {
    "ADDRESS": "8 BAYFRONT AVENUE MARINA BAY SANDS (CASINO) SINGAPORE 018955",
    "BLK_NO": "8",
    "BUILDING": "MARINA BAY SANDS (CASINO)",
    "LATITUDE": "1.2840691358247",
    "LONGITUDE": "103.859519516736",
    "LONGTITUDE": "103.859519516736",
    "POSTAL": "018955",
    "ROAD_NAME": "BAYFRONT AVENUE",
    "SEARCHVAL": "MARINA BAY SANDS (CASINO)",
    "X": "30915.9475764055",
    "Y": "29611.3756852429"
  },
  {
    "ADDRESS": "10 BAYFRONT AVENUE ANZ SINGAPORE Marina Bay Sands SINGAPORE 018956",
    "BLK_NO": "10",
    "BUILDING": "ANZ SINGAPORE Marina Bay Sands",
    "LATITUDE": "1.28240704314411",
    "LONGITUDE": "103.858392749523",
    "LONGTITUDE": "103.858392749523",
    "POSTAL": "018956",
    "ROAD_NAME": "BAYFRONT AVENUE",
    "SEARCHVAL": "ANZ SINGAPORE Marina Bay Sands",
    "X": "30790.5494991597",
    "Y": "29427.5887907911"
  },
  {
    "ADDRESS": "10 BAYFRONT AVENUE SANDS EXPO AND CONVENTION CENTRE SINGAPORE 018956",
    "BLK_NO": "10",
    "BUILDING": "SANDS EXPO AND CONVENTION CENTRE",
    "LATITUDE": "1.28240704287037",
    "LONGITUDE": "103.858392749795",
    "LONGTITUDE": "103.858392749795",
    "POSTAL": "018956",
    "ROAD_NAME": "BAYFRONT AVENUE",
    "SEARCHVAL": "SANDS EXPO AND CONVENTION CENTRE",
    "X": "30790.5495294277",
    "Y": "29427.5887605231"
  },
  {
    "ADDRESS": "10 BAYFRONT AVENUE UOB Marina Bay Sands SINGAPORE 018956",
    "BLK_NO": "10",
    "BUILDING": "UOB Marina Bay Sands",
    "LATITUDE": "1.28240704314411",
    "LONGITUDE": "103.858392749523",
    "LONGTITUDE": "103.858392749523",
    "POSTAL": "018956",
    "ROAD_NAME": "BAYFRONT AVENUE",
    "SEARCHVAL": "UOB Marina Bay Sands",
    "X": "30790.5494991597",
    "Y": "29427.5887907911"
  },
  {
    "ADDRESS": "11 BAYFRONT AVENUE BAYFRONT MRT STATION SINGAPORE 018957",
    "BLK_NO": "11",
    "BUILDING": "BAYFRONT MRT STATION",
    "LATITUDE": "1.2818737887921",
    "LONGITUDE": "103.859079764874",
    "LONGTITUDE": "103.859079764874",
    "POSTAL": "018957",
    "ROAD_NAME": "BAYFRONT AVENUE",
    "SEARCHVAL": "BAYFRONT MRT STATION",
    "X": "30867.0092712203",
    "Y": "29368.6250332352"
  },
  {
    "ADDRESS": "11 BAYFRONT AVENUE UOB Bayfront MRT Station SINGAPORE 018957",
    "BLK_NO": "11",
    "BUILDING": "UOB Bayfront MRT Station",
    "LATITUDE": "1.28187378851837",
    "LONGITUDE": "103.859079765146",
    "LONGTITUDE": "103.859079765146",
    "POSTAL": "018957",
    "ROAD_NAME": "BAYFRONT AVENUE",
    "SEARCHVAL": "UOB Bayfront MRT Station",
    "X": "30867.0093014883",
    "Y": "29368.6250029672"
  },
  {
    "ADDRESS": "2A BAYFRONT AVENUE THE SHOPPES AT MARINA BAY SANDS SINGAPORE 018958",
    "BLK_NO": "2A",
    "BUILDING": "THE SHOPPES AT MARINA BAY SANDS",
    "LATITUDE": "1.28395328732512",
    "LONGITUDE": "103.85885111134",
    "LONGTITUDE": "103.85885111134",
    "POSTAL": "018958",
    "ROAD_NAME": "BAYFRONT AVENUE",
    "SEARCHVAL": "THE SHOPPES AT MARINA BAY SANDS",
    "X": "30841.5597083671",
    "Y": "29598.5650032796"
  },
  {
    "ADDRESS": "11A BAYFRONT AVENUE SINGAPORE 018959",
    "BLK_NO": "11A",
    "BUILDING": "NIL",
    "LATITUDE": "1.27939255646796",
    "LONGITUDE": "103.858672684837",
    "LONGTITUDE": "103.858672684837",
    "POSTAL": "018959",
    "ROAD_NAME": "BAYFRONT AVENUE",
    "SEARCHVAL": "11A BAYFRONT AVENUE SINGAPORE 018959",
    "X": "30821.7073010625",
    "Y": "29094.2627109084"
  },
  {
    "ADDRESS": "8 MARINA VIEW ASIA SQUARE TOWER 1 SINGAPORE 018960",
    "BLK_NO": "8",
    "BUILDING": "ASIA SQUARE TOWER 1",
    "LATITUDE": "1.27894102286368",
    "LONGITUDE": "103.851255908066",
    "LONGTITUDE": "103.851255908066",
    "POSTAL": "018960",
    "ROAD_NAME": "MARINA VIEW",
    "SEARCHVAL": "ASIA SQUARE TOWER 1",
    "X": "29996.2802254586",
    "Y": "29044.327499412"
  },
  {
    "ADDRESS": "8 MARINA VIEW CONSULATE OF THE REPUBLIC OF SLOVENIA SINGAPORE 018960",
    "BLK_NO": "8",
    "BUILDING": "CONSULATE OF THE REPUBLIC OF SLOVENIA",
    "LATITUDE": "1.27874566853516",
    "LONGITUDE": "103.851270544365",
    "LONGTITUDE": "103.851270544365",
    "POSTAL": "018960",
    "ROAD_NAME": "MARINA VIEW",
    "SEARCHVAL": "CONSULATE OF THE REPUBLIC OF SLOVENIA",
    "X": "29997.9092786098",
    "Y": "29022.7262382768"
  },
  {
    "ADDRESS": "8 MARINA VIEW Consulate of Saint Vincent and the Grenadines SINGAPORE 018960",
    "BLK_NO": "8",
    "BUILDING": "Consulate of Saint Vincent and the Grenadines",
    "LATITUDE": "1.27884624016648",
    "LONGITUDE": "103.851163601606",
    "LONGTITUDE": "103.851163601606",
    "POSTAL": "018960",
    "ROAD_NAME": "MARINA VIEW",
    "SEARCHVAL": "Consulate of Saint Vincent and the Grenadines",
    "X": "29986.0073323203",
    "Y": "29033.8468468338"
  },
  {
    "ADDRESS": "8 MARINA VIEW DBS Asia Square SINGAPORE 018960",
    "BLK_NO": "8",
    "BUILDING": "DBS Asia Square",
    "LATITUDE": "1.27911428927864",
    "LONGITUDE": "103.851258617266",
    "LONGTITUDE": "103.851258617266",
    "POSTAL": "018960",
    "ROAD_NAME": "MARINA VIEW",
    "SEARCHVAL": "DBS Asia Square",
    "X": "29996.581603772",
    "Y": "29063.4864066727"
  },
  {
    "ADDRESS": "12 MARINA VIEW ASIA SQUARE TOWER 2 SINGAPORE 018961",
    "BLK_NO": "12",
    "BUILDING": "ASIA SQUARE TOWER 2",
    "LATITUDE": "1.27822949964568",
    "LONGITUDE": "103.850812513482",
    "LONGTITUDE": "103.850812513482",
    "POSTAL": "018961",
    "ROAD_NAME": "MARINA VIEW",
    "SEARCHVAL": "ASIA SQUARE TOWER 2",
    "X": "29946.9345132122",
    "Y": "28965.6505975444"
  },
  {
    "ADDRESS": "12 MARINA VIEW THE WESTIN SINGAPORE SINGAPORE 018961",
    "BLK_NO": "12",
    "BUILDING": "THE WESTIN SINGAPORE",
    "LATITUDE": "1.27836304614882",
    "LONGITUDE": "103.850957393439",
    "LONGTITUDE": "103.850957393439",
    "POSTAL": "018961",
    "ROAD_NAME": "MARINA VIEW",
    "SEARCHVAL": "THE WESTIN SINGAPORE",
    "X": "29963.0583892101",
    "Y": "28980.4175901003"
  },
  {
    "ADDRESS": "70 MARINA VIEW MARINA BAY FIRE STATION SINGAPORE 018962",
    "BLK_NO": "70",
    "BUILDING": "MARINA BAY FIRE STATION",
    "LATITUDE": "1.27486187654767",
    "LONGITUDE": "103.849094342097",
    "LONGTITUDE": "103.849094342097",
    "POSTAL": "018962",
    "ROAD_NAME": "MARINA VIEW",
    "SEARCHVAL": "MARINA BAY FIRE STATION",
    "X": "29755.7181000132",
    "Y": "28593.275004901"
  },
  {
    "ADDRESS": "70 MARINA VIEW MARINA BAY NEIGHBOURHOOD POLICE CENTRE SINGAPORE 018962",
    "BLK_NO": "70",
    "BUILDING": "MARINA BAY NEIGHBOURHOOD POLICE CENTRE",
    "LATITUDE": "1.27473549954703",
    "LONGITUDE": "103.848994254645",
    "LONGTITUDE": "103.848994254645",
    "POSTAL": "018962",
    "ROAD_NAME": "MARINA VIEW",
    "SEARCHVAL": "MARINA BAY NEIGHBOURHOOD POLICE CENTRE",
    "X": "29744.5792398611",
    "Y": "28579.3008216415"
  },
  {
    "ADDRESS": "3 CENTRAL BOULEVARD MARINA BAY SUITES SINGAPORE 018965",
    "BLK_NO": "3",
    "BUILDING": "MARINA BAY SUITES",
    "LATITUDE": "1.28034497999595",
    "LONGITUDE": "103.852143277672",
    "LONGTITUDE": "103.852143277672",
    "POSTAL": "018965",
    "ROAD_NAME": "CENTRAL BOULEVARD",
    "SEARCHVAL": "MARINA BAY SUITES",
    "X": "30095.0361812925",
    "Y": "29199.5705350339"
  },
  {
    "ADDRESS": "15 CENTRAL BOULEVARD DOWNTOWN MRT STATION SINGAPORE 018969",
    "BLK_NO": "15",
    "BUILDING": "DOWNTOWN MRT STATION",
    "LATITUDE": "1.27944619017902",
    "LONGITUDE": "103.852840444471",
    "LONGTITUDE": "103.852840444471",
    "POSTAL": "018969",
    "ROAD_NAME": "CENTRAL BOULEVARD",
    "SEARCHVAL": "DOWNTOWN MRT STATION",
    "X": "30172.6259479886",
    "Y": "29100.1875779182"
  },
  {
    "ADDRESS": "1 BAYFRONT AVENUE CITIBANK MBS SINGAPORE 018971",
    "BLK_NO": "1",
    "BUILDING": "CITIBANK MBS",
    "LATITUDE": "1.28466203613221",
    "LONGITUDE": "103.861005919301",
    "LONGTITUDE": "103.861005919301",
    "POSTAL": "018971",
    "ROAD_NAME": "BAYFRONT AVENUE",
    "SEARCHVAL": "CITIBANK MBS",
    "X": "31081.3711878154",
    "Y": "29676.9372881576"
  },
  {
    "ADDRESS": "1 BAYFRONT AVENUE MARINA BAY SANDS SINGAPORE SINGAPORE 018971",
    "BLK_NO": "1",
    "BUILDING": "MARINA BAY SANDS SINGAPORE",
    "LATITUDE": "1.28299340638342",
    "LONGITUDE": "103.860468077903",
    "LONGTITUDE": "103.860468077903",
    "POSTAL": "018971",
    "ROAD_NAME": "BAYFRONT AVENUE",
    "SEARCHVAL": "MARINA BAY SANDS SINGAPORE",
    "X": "31021.5158565314",
    "Y": "29492.4281693473"
  },
  {
    "ADDRESS": "1 BAYFRONT AVENUE OCBC Marina Bay Sands SINGAPORE 018971",
    "BLK_NO": "1",
    "BUILDING": "OCBC Marina Bay Sands",
    "LATITUDE": "1.28466203613221",
    "LONGITUDE": "103.861005919301",
    "LONGTITUDE": "103.861005919301",
    "POSTAL": "018971",
    "ROAD_NAME": "BAYFRONT AVENUE",
    "SEARCHVAL": "OCBC Marina Bay Sands",
    "X": "31081.3711878154",
    "Y": "29676.9372881576"
  },
  {
    "ADDRESS": "1 BAYFRONT AVENUE SANDS SKYPARK SINGAPORE 018971",
    "BLK_NO": "1",
    "BUILDING": "SANDS SKYPARK",
    "LATITUDE": "1.28445018649269",
    "LONGITUDE": "103.860956741623",
    "LONGTITUDE": "103.860956741623",
    "POSTAL": "018971",
    "ROAD_NAME": "BAYFRONT AVENUE",
    "SEARCHVAL": "SANDS SKYPARK",
    "X": "31075.8983731437",
    "Y": "29653.5119875204"
  },
  {
    "ADDRESS": "1 BAYFRONT AVENUE TOWER 1 (MARINA BAY SANDS SINGAPORE) SINGAPORE 018971",
    "BLK_NO": "1",
    "BUILDING": "TOWER 1 (MARINA BAY SANDS SINGAPORE)",
    "LATITUDE": "1.28258336683979",
    "LONGITUDE": "103.860220223356",
    "LONGTITUDE": "103.860220223356",
    "POSTAL": "018971",
    "ROAD_NAME": "BAYFRONT AVENUE",
    "SEARCHVAL": "TOWER 1 (MARINA BAY SANDS SINGAPORE)",
    "X": "30993.9321586816",
    "Y": "29447.0878193863"
  },
  {
    "ADDRESS": "1 BAYFRONT AVENUE TOWER 2 (MARINA BAY SANDS SINGAPORE) SINGAPORE 018971",
    "BLK_NO": "1",
    "BUILDING": "TOWER 2 (MARINA BAY SANDS SINGAPORE)",
    "LATITUDE": "1.28360346911492",
    "LONGITUDE": "103.860720977246",
    "LONGTITUDE": "103.860720977246",
    "POSTAL": "018971",
    "ROAD_NAME": "BAYFRONT AVENUE",
    "SEARCHVAL": "TOWER 2 (MARINA BAY SANDS SINGAPORE)",
    "X": "31049.6607530667",
    "Y": "29559.886061443"
  },
  {
    "ADDRESS": "1 BAYFRONT AVENUE TOWER 3 (MARINA BAY SANDS SINGAPORE) SINGAPORE 018971",
    "BLK_NO": "1",
    "BUILDING": "TOWER 3 (MARINA BAY SANDS SINGAPORE)",
    "LATITUDE": "1.28466203640594",
    "LONGITUDE": "103.861005919029",
    "LONGTITUDE": "103.861005919029",
    "POSTAL": "018971",
    "ROAD_NAME": "BAYFRONT AVENUE",
    "SEARCHVAL": "TOWER 3 (MARINA BAY SANDS SINGAPORE)",
    "X": "31081.3711575475",
    "Y": "29676.9373184256"
  },
  {
    "ADDRESS": "2 BAYFRONT AVENUE DBS Marina Bay Sands Basement 2 SINGAPORE 018972",
    "BLK_NO": "2",
    "BUILDING": "DBS Marina Bay Sands Basement 2",
    "LATITUDE": "1.28355872080163",
    "LONGITUDE": "103.858505742103",
    "LONGTITUDE": "103.858505742103",
    "POSTAL": "018972",
    "ROAD_NAME": "BAYFRONT AVENUE",
    "SEARCHVAL": "DBS Marina Bay Sands Basement 2",
    "X": "30803.1233946877",
    "Y": "29554.9354905616"
  },
  {
    "ADDRESS": "2 BAYFRONT AVENUE DBS Marina Bay Sands Level 1 SINGAPORE 018972",
    "BLK_NO": "2",
    "BUILDING": "DBS Marina Bay Sands Level 1",
    "LATITUDE": "1.28355872080163",
    "LONGITUDE": "103.858505742103",
    "LONGTITUDE": "103.858505742103",
    "POSTAL": "018972",
    "ROAD_NAME": "BAYFRONT AVENUE",
    "SEARCHVAL": "DBS Marina Bay Sands Level 1",
    "X": "30803.1233946877",
    "Y": "29554.9354905616"
  },
  {
    "ADDRESS": "2 BAYFRONT AVENUE THE SHOPPES AT MARINA BAY SANDS SINGAPORE 018972",
    "BLK_NO": "2",
    "BUILDING": "THE SHOPPES AT MARINA BAY SANDS",
    "LATITUDE": "1.28423066458139",
    "LONGITUDE": "103.858981982401",
    "LONGTITUDE": "103.858981982401",
    "POSTAL": "018972",
    "ROAD_NAME": "BAYFRONT AVENUE",
    "SEARCHVAL": "THE SHOPPES AT MARINA BAY SANDS",
    "X": "30856.1242686473",
    "Y": "29629.236096004"
  },
  {
    "ADDRESS": "4 BAYFRONT AVENUE MARINA BAY SANDS (MASTERCARD THEATRES) SINGAPORE 018973",
    "BLK_NO": "4",
    "BUILDING": "MARINA BAY SANDS (MASTERCARD THEATRES)",
    "LATITUDE": "1.28522950090079",
    "LONGITUDE": "103.860022837872",
    "LONGTITUDE": "103.860022837872",
    "POSTAL": "018973",
    "ROAD_NAME": "BAYFRONT AVENUE",
    "SEARCHVAL": "MARINA BAY SANDS (MASTERCARD THEATRES)",
    "X": "30971.9617189486",
    "Y": "29739.6834540311"
  },
  {
    "ADDRESS": "6 BAYFRONT AVENUE MARINA BAY SANDS (ARTSCIENCE MUSEUM) SINGAPORE 018974",
    "BLK_NO": "6",
    "BUILDING": "MARINA BAY SANDS (ARTSCIENCE MUSEUM)",
    "LATITUDE": "1.28623689908238",
    "LONGITUDE": "103.859257443806",
    "LONGTITUDE": "103.859257443806",
    "POSTAL": "018974",
    "ROAD_NAME": "BAYFRONT AVENUE",
    "SEARCHVAL": "MARINA BAY SANDS (ARTSCIENCE MUSEUM)",
    "X": "30886.7785929088",
    "Y": "29851.0754758324"
  },
  {
    "ADDRESS": "21 MARINA WAY MARINA ONE RESIDENCES SINGAPORE 018978",
    "BLK_NO": "21",
    "BUILDING": "MARINA ONE RESIDENCES",
    "LATITUDE": "1.27671498507476",
    "LONGITUDE": "103.853326932298",
    "LONGTITUDE": "103.853326932298",
    "POSTAL": "018978",
    "ROAD_NAME": "MARINA WAY",
    "SEARCHVAL": "MARINA ONE RESIDENCES",
    "X": "30226.7704674453",
    "Y": "28798.1854408998"
  },
  {
    "ADDRESS": "23 MARINA WAY MARINA ONE RESIDENCES SINGAPORE 018979",
    "BLK_NO": "23",
    "BUILDING": "MARINA ONE RESIDENCES",
    "LATITUDE": "1.27722425616287",
    "LONGITUDE": "103.853694940241",
    "LONGTITUDE": "103.853694940241",
    "POSTAL": "018979",
    "ROAD_NAME": "MARINA WAY",
    "SEARCHVAL": "MARINA ONE RESIDENCES",
    "X": "30267.7263788935",
    "Y": "28854.4983284436"
  },
  {
    "ADDRESS": "18 MARINA BOULEVARD MARINA BAY RESIDENCES SINGAPORE 018980",
    "BLK_NO": "18",
    "BUILDING": "MARINA BAY RESIDENCES",
    "LATITUDE": "1.27962579891802",
    "LONGITUDE": "103.854987203774",
    "LONGTITUDE": "103.854987203774",
    "POSTAL": "018980",
    "ROAD_NAME": "MARINA BOULEVARD",
    "SEARCHVAL": "MARINA BAY RESIDENCES",
    "X": "30411.5427663755",
    "Y": "29120.0497012455"
  },
  {
    "ADDRESS": "8 MARINA BOULEVARD CITIBANK Marina Bay Link Mall SINGAPORE 018981",
    "BLK_NO": "8",
    "BUILDING": "CITIBANK Marina Bay Link Mall",
    "LATITUDE": "1.27979424421632",
    "LONGITUDE": "103.854548751249",
    "LONGTITUDE": "103.854548751249",
    "POSTAL": "018981",
    "ROAD_NAME": "MARINA BOULEVARD",
    "SEARCHVAL": "CITIBANK Marina Bay Link Mall",
    "X": "30362.7463877648",
    "Y": "29138.675105026"
  },
  {
    "ADDRESS": "8 MARINA BOULEVARD DBS Marina BAY Link Mall SINGAPORE 018981",
    "BLK_NO": "8",
    "BUILDING": "DBS Marina BAY Link Mall",
    "LATITUDE": "1.28019533269191",
    "LONGITUDE": "103.854207695749",
    "LONGTITUDE": "103.854207695749",
    "POSTAL": "018981",
    "ROAD_NAME": "MARINA BOULEVARD",
    "SEARCHVAL": "DBS Marina BAY Link Mall",
    "X": "30324.7893070718",
    "Y": "29183.0250865594"
  },
  {
    "ADDRESS": "8 MARINA BOULEVARD MARINA BAY FINANCIAL CENTRE SINGAPORE 018981",
    "BLK_NO": "8",
    "BUILDING": "MARINA BAY FINANCIAL CENTRE",
    "LATITUDE": "1.27946811236052",
    "LONGITUDE": "103.85374955357",
    "LONGTITUDE": "103.85374955357",
    "POSTAL": "018981",
    "ROAD_NAME": "MARINA BOULEVARD",
    "SEARCHVAL": "MARINA BAY FINANCIAL CENTRE",
    "X": "30273.8024344807",
    "Y": "29102.6124066301"
  },
  {
    "ADDRESS": "8 MARINA BOULEVARD MARINA BAY FINANCIAL CENTRE (TOWER 1) SINGAPORE 018981",
    "BLK_NO": "8",
    "BUILDING": "MARINA BAY FINANCIAL CENTRE (TOWER 1)",
    "LATITUDE": "1.28017805394607",
    "LONGITUDE": "103.854195081128",
    "LONGTITUDE": "103.854195081128",
    "POSTAL": "018981",
    "ROAD_NAME": "MARINA BOULEVARD",
    "SEARCHVAL": "MARINA BAY FINANCIAL CENTRE (TOWER 1)",
    "X": "30323.3854174512",
    "Y": "29181.114480624"
  },
  {
    "ADDRESS": "8 MARINA BOULEVARD OCBC Marina Bay Financial Centre Branch SINGAPORE 018981",
    "BLK_NO": "8",
    "BUILDING": "OCBC Marina Bay Financial Centre Branch",
    "LATITUDE": "1.27943947904258",
    "LONGITUDE": "103.853786578966",
    "LONGTITUDE": "103.853786578966",
    "POSTAL": "018981",
    "ROAD_NAME": "MARINA BOULEVARD",
    "SEARCHVAL": "OCBC Marina Bay Financial Centre Branch",
    "X": "30277.9230875159",
    "Y": "29099.4463149961"
  },
  {
    "ADDRESS": "8 MARINA BOULEVARD OCBC Marina Bay Link Mall SINGAPORE 018981",
    "BLK_NO": "8",
    "BUILDING": "OCBC Marina Bay Link Mall",
    "LATITUDE": "1.27979424421632",
    "LONGITUDE": "103.854548751249",
    "LONGTITUDE": "103.854548751249",
    "POSTAL": "018981",
    "ROAD_NAME": "MARINA BOULEVARD",
    "SEARCHVAL": "OCBC Marina Bay Link Mall",
    "X": "30362.7463877648",
    "Y": "29138.675105026"
  },
  {
    "ADDRESS": "8 MARINA BOULEVARD STANDARD CHARTERED BANK Marina Bay Branch SINGAPORE 018981",
    "BLK_NO": "8",
    "BUILDING": "STANDARD CHARTERED BANK Marina Bay Branch",
    "LATITUDE": "1.27958121307614",
    "LONGITUDE": "103.853751927124",
    "LONGTITUDE": "103.853751927124",
    "POSTAL": "018981",
    "ROAD_NAME": "MARINA BOULEVARD",
    "SEARCHVAL": "STANDARD CHARTERED BANK Marina Bay Branch",
    "X": "30274.0664923703",
    "Y": "29115.1185018737"
  },
  {
    "ADDRESS": "8 MARINA BOULEVARD UOB Marina Bay Financial Centre Branch SINGAPORE 018981",
    "BLK_NO": "8",
    "BUILDING": "UOB Marina Bay Financial Centre Branch",
    "LATITUDE": "1.27943947904258",
    "LONGITUDE": "103.853786578966",
    "LONGTITUDE": "103.853786578966",
    "POSTAL": "018981",
    "ROAD_NAME": "MARINA BOULEVARD",
    "SEARCHVAL": "UOB Marina Bay Financial Centre Branch",
    "X": "30277.9230875159",
    "Y": "29099.4463149961"
  },
  {
    "ADDRESS": "12 MARINA BOULEVARD Consulate of the Republic of Iceland SINGAPORE 018982",
    "BLK_NO": "12",
    "BUILDING": "Consulate of the Republic of Iceland",
    "LATITUDE": "1.27910567828196",
    "LONGITUDE": "103.854297424273",
    "LONGTITUDE": "103.854297424273",
    "POSTAL": "018982",
    "ROAD_NAME": "MARINA BOULEVARD",
    "SEARCHVAL": "Consulate of the Republic of Iceland",
    "X": "30334.7763493713",
    "Y": "29062.5368092209"
  },
  {
    "ADDRESS": "12 MARINA BOULEVARD DBS AUDITORIUM SINGAPORE 018982",
    "BLK_NO": "12",
    "BUILDING": "DBS AUDITORIUM",
    "LATITUDE": "1.27901700601654",
    "LONGITUDE": "103.854464808366",
    "LONGTITUDE": "103.854464808366",
    "POSTAL": "018982",
    "ROAD_NAME": "MARINA BOULEVARD",
    "SEARCHVAL": "DBS AUDITORIUM",
    "X": "30353.4049312901",
    "Y": "29052.7320407182"
  },
  {
    "ADDRESS": "12 MARINA BOULEVARD DBS MBFC Branch SINGAPORE 018982",
    "BLK_NO": "12",
    "BUILDING": "DBS MBFC Branch",
    "LATITUDE": "1.27914768799409",
    "LONGITUDE": "103.85447460767",
    "LONGTITUDE": "103.85447460767",
    "POSTAL": "018982",
    "ROAD_NAME": "MARINA BOULEVARD",
    "SEARCHVAL": "DBS MBFC Branch",
    "X": "30354.4953959398",
    "Y": "29067.182188021"
  }
]
